
{"networks":[{"company":["Nextbike GmbH"],"href":"/v2/networks/norisbikenurnberg","id":"norisbike-nurnberg","location": {"city":"N\u00fcrnberg","country":"DE","latitude":49.4479,"longitude":11.0814},"name":"NorisBike"}, {"company":["Nextbike GmbH"],"href":"/v2/networks/sz-bikedresden","id":"sz-bike-dresden","location": {"city":"Dresden","country":"DE","latitude":51.0535 ,"longitude":13.7387},"name":"sz-bike"},{"company": ["Nextbike GmbH"],"href":"/v2/networks/facherradkarlsruhe","id":"facherrad-karlsruhe","location": {"city":"Karlsruhe","country":"DE","latitude":49.0102,"longitude":8.41827},"name":"F\u00e4cherrad"}, {"company":["Nextbike GmbH"],"href":"/v2/networks/visafrankfurt","id":"visa-frankfurt","location": {"city":"Frankfurt","country":"DE","latitude":50.1072,"longitude":8.66375},"name":"VISA"},{"company": ["Nextbike GmbH"],"href":"/v2/networks/nextbikeleipzig","id":"nextbike-leipzig","location": {"city":"Leipzig","country":"DE","latitude":51.3415 ,"longitude":12.3625},"name":"Nextbike"}, {"company":["Nextbike GmbH"],"href":"/v2/networks/kvb-radkoln","id":"kvb-rad-koln","location": {"city":"K\u00f6ln","country":"DE","latitude":50.9429,"longitude":6.95649},"name":"KVB Rad"}, {"company":["Nextbike GmbH"],"href":"/v2/networks/nextbikewiesbaden","id":"nextbike-wiesbaden","location": {"city":"Wiesbaden","country":"DE","latitude":50.0709,"longitude":8.24322},"name":"Nextbike"}, {"company":["Nextbike GmbH"],"href":"/v2/networks/burgenland-neusiedlersee","id":"burgenland-neusiedler-see","location": {"city":"Neusiedler See","country":"AT","latitude":47.839,"longitude":16.761},"name":"Burgenland"},{"company":["Nextbike GmbH"],"href":"/v2/networks/nextbike-offenbach-ammain","id":"nextbike-offenbach-am-main","location": {"city":"Offenbach am Main","country":"DE","latitude":50.1093,"longitude" :8.73825},"name":"Nextbike"},{"company":["Nextbike GmbH"],"href":"/v2/networks/nextbikeauckland","id":"nextbike-auckland","location": {"city":"Auckland","country":"NZ","latitude":-36.8603,"longitude":174.763},"name":"Nextbike"}, {"company":["Nextbike GmbH"],"href":"/v2/networks/nextbikestpolten","id":"nextbike-stpolten","location": {"city":"St.P\u00f6lten","country":"AT","latitude": 48.2058,"longitude":15.6232},"name":"Nextbike"}, {"company":["Nextbike GmbH"],"href":"/v2/networks/nextbikedusseldorf","id":"nextbike-dusseldorf","location": {"city":"D\u00fcsseldorf","country":"DE","latitude" :51.2243,"longitude":6.77204},"name":"Nextbike"}, {"company":["Nextbike GmbH"],"href":"/v2/networks/nextbikemagdeburg","id":"nextbike-magdeburg","location": {"city":"Magdeburg","country":"DE","latitude":52.1268,"longitude":11.6342},"name":"Nextbike"}, {"company":["Nextbike GmbH"],"href":"/v2/networks/nextbikemodling","id":"nextbike-modling","location": {"city":"M\u00f6dling","country":"AT","latitude":48.1047,"longitude":16.3202},"name":"Nextbike"}, {"company":["Nextbike GmbH"],"href":"/v2/networks/nextbikesursee","id":"nextbike-sursee","location": {"city":"Sursee","country":"CH","latitude":47.1713, "longitude":8.10877},"name":"Nextbike"},{"company": ["Nextbike GmbH"],"href":"/v2/networks/nextbiketubingen","id":"nextbike-tubingen","location": {"city":"T\u00fcbingen","country":"DE","latitude":48.5203,"longitude":9.05591},"name":"Nextbike"}, {"company":["Nextbike GmbH"],"href":"/v2/networks/nextbikeluzern","id":"nextbike-luzern","location": {"city":"Luzern","country":"CH","latitude":47.0472, "longitude":8.30446},"name":"Nextbike"},{"company": ["Nextbike GmbH"],"href":"/v2/networks/metropolradruhrdortmund","id":"metropolradruhrdortmund","location": {"city":"Dortmund","country":"DE","latitude":51.5141,"longitude":7.46255},"name":"metropolradruhr"}, {"company":["Nextbike GmbH"],"href":"/v2/networks/sixt-riga","id":"sixtriga","location": {"city":"R\u012bga","country":"LV","latitude":56.9453,"longitude":24.1033},"name":"SiXT"},{"company": ["Nextbike GmbH"],"href":"/v2/networks/metropolradruhrbochum","id":"metropolradruhr-bochum","location": {"city":"Bochum","country":"DE","latitude":51.4813, "longitude":7.2133},"name":"metropolradruhr"}, {"company":["Nextbike GmbH"],"href":"/v2/networks/metropolradruhrbottrop","id":"metropolradruhr-bottrop","location": {"city":"Bottrop","country":"DE","latitude":51.5263 ,"longitude":6.94611},"name":"metropolradruhr"}, {"company":["Nextbike GmbH"],"href":"/v2/networks/metropolradruhrduisburg","id":"metropolradruhrduisburg","location": {"city":"Duisburg","country":"DE","latitude":51.4487,"longitude":6.77513},"name":"metropolradruhr"}, {"company":["Nextbike GmbH"],"href":"/v2/networks/metropolradruhressen","id":"metropolradruhr-essen","location": {"city":"Essen","country":"DE","latitude":51.4425," longitude":7.02301},"name":"metropolradruhr"}, {"company":["Nextbike GmbH"],"href":"/v2/networks/metropolradruhrgelsenkirchen","id":"metropolradruhrgelsenkirchen","location": {"city":"Gelsenkirchen","country":"DE","latitude":51.5404,"longitude":7.07039},"name":"metropolradruhr "},{"company":["Nextbike GmbH"],"href":"/v2/networks/metropolradruhrhamm","id":"metropolradruhr-hamm","location": {"city":"Hamm","country":"DE","latitude":51.6775,"l ongitude":7.84836},"name":"metropolradruhr"}, {"company":["Nextbike GmbH"],"href":"/v2/networks/metropolradruhrherne","id":"metropolradruhr-herne","location": {"city":"Herne","country":"DE","latitude":51.5363," longitude":7.21493},"name":"metropolradruhr"}, {"company":["Nextbike GmbH"],"href":"/v2/networks/metropolradruhroberhausen","id":"metropolradruhroberhausen","location": {"city":"Oberhausen","country":"DE","latitude":51.4936,"longitude":6.85169},"name":"metropolradruhr"}, {"company":["Nextbike GmbH"],"href":"/v2/networks/metropolradruhrmulheim-adr","id":"metropolradruhr-mulheimadr","location":{"city":"M\u00fclheim a.d.R.","country":"DE","latitude":51.4308,"longitud e":6.87401},"name":"metropolradruhr"},{"company": ["Nextbike GmbH"],"href":"/v2/networks/nextbikemunchen","id":"nextbike-munchen","location": {"city":"M\u00fcnchen","country":"DE","latitude":48.1358,"longitude":11.5356},"name":"Nextbike"}, {"company":["Nextbike GmbH"],"href":"/v2/networks/sixtjurmala","id":"sixt-jurmala","location": {"city":"J\u016brmala","country":"LV","latitude":56.9732,"longitude":23.8225},"name":"SiXT"}, {"company":["Nextbike GmbH"],"href":"/v2/networks/nextbikewachau","id":"nextbike-wachau","location": {"city":"Wachau","country":"AT","latitude":48.3188, "longitude":15.4166},"name":"Nextbike"},{"company": ["Nextbike GmbH"],"href":"/v2/networks/nextbiketulln","id":"nextbike-tulln","location": {"city":"Tulln","country":"AT","latitude":48.3269," longitude":16.0569},"name":"Nextbike"},{"company": ["Nextbike GmbH"],"href":"/v2/networks/nextbiketriestingtal","id":"nextbiketriestingtal","location": {"city":"Triestingtal","country":"AT","latitude":47.9421,"longitude":16.1149},"name":"Nextbike"}, {"company":["Nextbike GmbH"],"href":"/v2/networks/wrm-wroclaw","id":"wrmwroclaw","location": {"city":"Wroc\u0142aw","country":"PL","latitude":51.1097,"longitude":17.0485},"name":"WRM"}, {"company":["Nextbike GmbH"],"href":"/v2/networks/nextbikewrneustadt","id":"nextbike-wrneustadt","location": {"city":"Wr.Neustadt","country":"AT","latitude":47.8167,"longitude":16.2426},"name":"Nextbike"}, {"company":["Nextbike GmbH"],"href":"/v2/networks/nextbikethermenregion","id":"nextbikethermenregion","location": {"city":"Thermenregion","country":"AT","latitude":47.9892,"longitude":16.2646},"name":"Nextbike"}, {"company":["Nextbike GmbH"],"href":"/v2/networks/nextbikeflensburg","id":"nextbike-flensburg","location": {"city":"Flensburg","country":"DE","latitude":54.7804,"longitude":9.43571},"name":"Nextbike"}, {"company":["Nextbike GmbH"],"href":"/v2/networks/nextbikeoffenburg","id":"nextbike-offenburg","location": {"city":"Offenburg","country":"DE","latitude":48.4721,"longitude":7.94243},"name":"Nextbike"}, {"company":["Nextbike GmbH"],"href":"/v2/networks/nextbikeromerland","id":"nextbike-romerland","location": {"city":"R\u00f6merland","country":"AT","latitude": 48.0909,"longitude":16.853},"name":"Nextbike"}, {"company":["Nextbike GmbH"],"href":"/v2/networks/nextbikepotsdam","id":"nextbike-potsdam","location": {"city":"Potsdam","country":"DE","latitude":52.3997 ,"longitude":13.0676},"name":"Nextbike"}, {"company":["Nextbike GmbH"],"href":"/v2/networks/nextbikegutersloh","id":"nextbike-gutersloh","location": {"city":"G\u00fctersloh","country":"DE","latitude": 51.9049,"longitude":8.39275},"name":"Nextbike"}, {"company":["Nextbike GmbH"],"href":"/v2/networks/nextbikemarchfeld","id":"nextbike-marchfeld","location": {"city":"Marchfeld","country":"AT","latitude":48.2407,"longitude":16.9093},"name":"Nextbike"}, {"company":["Nextbike GmbH"],"href":"/v2/networks/nextbikehaag","id":"nextbike-haag","location": {"city":"Haag","country":"AT","latitude":48.0643,"l ongitude":14.7368},"name":"Nextbike"},{"company": ["Nextbike GmbH"],"href":"/v2/networks/nextbikeunteres-traisental","id":"nextbike-unterestraisental","location":{"city":"Unteres Traisental","country":"AT","latitude":48.1111,"long itude":15.8176},"name":"Nextbike"},{"company": ["Nextbike GmbH"],"href":"/v2/networks/nextbikenorderstedt","id":"nextbikenorderstedt","location": {"city":"Norderstedt","country":"DE","latitude":53.6969,"longitude":10.002},"name":"Nextbike"}, {"company":["Nextbike GmbH"],"href":"/v2/networks/nextbike10vorwien","id":"nextbike-10vorwien","location": {"city":"10vorWien","country":"AT","latitude":48.3403,"longitude":16.279},"name":"Nextbike"}, {"company":["Nextbike GmbH"],"href":"/v2/networks/swa-radaugsburg","id":"swa-rad-augsburg","location": {"city":"Augsburg","country":"DE","latitude":48.3647,"longitude":10.8916},"name":"SWA Rad"}, {"company":["Nextbike GmbH"],"href":"/v2/networks/usedomradusedom","id":"usedomrad-usedom","location": {"city":"Usedom","country":"DE","latitude":53.9779, "longitude":13.9925},"name":"UsedomRad"}, {"company":["Nextbike GmbH"],"href":"/v2/networks/nextbike-traisengolsental","id":"nextbike-traisengolsental","location":{"city":"TraisenG\u00f6lsental","country":"AT","latitude":47.9439," longitude":15.639},"name":"Nextbike"},{"company": ["Nextbike GmbH"],"href":"/v2/networks/nextbikelunz-am-see","id":"nextbike-lunz-amsee","location":{"city":"Lunz am See","country":"AT","latitude":47.8618,"longitude": 15.0348},"name":"Nextbike"},{"company":["Nextbike GmbH"],"href":"/v2/networks/nextbike-laa-an-derthaya","id":"nextbike-laa-an-der-thaya","location": {"city":"Laa an der Thaya","country":"AT","latitude":48.7196,"longitude ":16.3878},"name":"Nextbike"},{"company":["Nextbike GmbH"],"href":"/v2/networks/nextbikelimassol","id":"nextbike-limassol","location": {"city":"Limassol","country":"CY","latitude":34.6823,"longitude":33.0464},"name":"Nextbike"}, {"company":["Nextbike GmbH"],"href":"/v2/networks/nextbikekonya","id":"nextbike-konya","location": {"city":"Konya","country":"TR","latitude":37.8715," longitude":32.4957},"name":"Nextbike"},{"company": ["Nextbike GmbH"],"href":"/v2/networks/nextbikesudheide","id":"nextbike-sudheide","location": {"city":"S\u00fcdheide","country":"AT","latitude":48.1077,"longitude":16.3937},"name":"Nextbike"}, {"company":["Nextbike GmbH"],"href":"/v2/networks/prm-poznan","id":"prmpoznan","location": {"city":"Pozna\u0144","country":"PL","latitude":52.4077,"longitude":16.9323},"name":"PRM"},{"company": ["Nextbike GmbH"],"href":"/v2/networks/nextbikechristchurch","id":"nextbikechristchurch","location": {"city":"Christchurch","country":"NZ","latitude":-43.5341,"longitude":172.621},"name":"Nextbike"}, {"company":["Nextbike GmbH"],"href":"/v2/networks/vrnheidelberg","id":"vrn-heidelberg","location": {"city":"Heidelberg","country":"DE","latitude":49.4023,"longitude":8.67577},"name":"VRN"},{"company": ["Nextbike GmbH"],"href":"/v2/networks/vrnmannheim","id":"vrn-mannheim","location": {"city":"Mannheim","country":"DE","latitude":49.4869,"longitude":8.45638},"name":"VRN"},{"company": ["Nextbike GmbH"],"href":"/v2/networks/nextbiketullnerfeld-west","id":"nextbike-tullnerfeldwest","location":{"city":"Tullnerfeld West","country":"AT","latitude":48.2994,"longitude" :15.9065},"name":"Nextbike"},{"company":["Nextbike GmbH"],"href":"/v2/networks/stadtradinnsbruck","id":"stadtrad-innsbruck","location": {"city":"Innsbruck","country":"AT","latitude":47.2632,"longitude":11.3961},"name":"Stadtrad"}, {"company":["Nextbike GmbH"],"href":"/v2/networks/opole-bikeopole","id":"opole-bike-opole","location": {"city":"Opole","country":"PL","latitude":50.6633," longitude":17.9239},"name":"Opole Bike"}, {"company":["Nextbike GmbH"],"href":"/v2/networks/nextbikenicosia","id":"nextbike-nicosia","location": {"city":"Nicosia","country":"CY","latitude":35.1728 ,"longitude":33.3653},"name":"Nextbike"}, {"company":["Nextbike GmbH"],"href":"/v2/networks/veturilowarszawa","id":"veturilo-warszawa","location": {"city":"Warszawa","country":"PL","latitude":52.2265,"longitude":21.0127},"name":"VETURILO"}, {"company":["Nextbike GmbH"],"href":"/v2/networks/nextbikehollabrunn","id":"nextbike-hollabrunn","location": {"city":"Hollabrunn","country":"AT","latitude":48.562,"longitude":16.0785},"name":"Nextbike"}, {"company":["Nextbike GmbH"],"href":"/v2/networks/nextbikewienerwald","id":"nextbike-wienerwald","location": {"city":"WienerWald","country":"AT","latitude":48.1926,"longitude":16.141},"name":"Nextbike"}, {"company":["Nextbike GmbH"],"href":"/v2/networks/nextbikedobrich","id":"nextbike-dobrich","location": {"city":"Dobrich","country":"BG","latitude":43.567, "longitude":27.8285},"name":"Nextbike"},{"company": ["Nextbike GmbH"],"href":"/v2/networks/bykystations-uaedubai","id":"bykystations-uae-dubai","location": {"city":"Dubai","country":"AE","latitude":25.2435," longitude":55.2722},"name":"BYKYstations UAE"}, {"company":["Nextbike GmbH"],"href":"/v2/networks/nextbikezagreb","id":"nextbike-zagreb","location": {"city":"Zagreb","country":"HR","latitude":45.7984, "longitude":15.9789},"name":"Nextbike"},{"company": ["Nextbike GmbH"],"href":"/v2/networks/ebikestationbietigheim-bissingen","id":"ebikestationbietigheim-bissingen","location": {"city":"BietigheimBissingen","country":"DE","latitude":48.9495,"longi tude":9.12518},"name":"ebikestation"},{"company": ["Nextbike GmbH"],"href":"/v2/networks/nextbikebath","id":"nextbike-bath","location": {"city":"Bath","country":"GB","latitude":51.3793,"l ongitude":-2.35279},"name":"Nextbike"},{"company": ["Nextbike GmbH"],"href":"/v2/networks/nextbikeglasgow","id":"nextbike-glasgow","location": {"city":"Glasgow","country":"GB","latitude":55.8589 ,"longitude":-4.25549},"name":"Nextbike"}, {"company":["Nextbike GmbH"],"href":"/v2/networks/belfastbikesbelfast","id":"belfastbikes-belfast","location": {"city":"Belfast","country":"GB","latitude":54.5969 ,"longitude":-5.92918},"name":"BelfastBikes"}, {"company":["Nextbike GmbH"],"href":"/v2/networks/nextbikestirling","id":"nextbike-stirling","location": {"city":"Stirling","country":"GB","latitude":56.1165,"longitude":-3.9369},"name":"Nextbike"}, {"company":["Nextbike GmbH"],"href":"/v2/networks/biker-bialystokbialystok","id":"biker-bialystokbialystok","location": {"city":"Bia\u0142ystok","country":"PL","latitude": 53.2655,"longitude":23.3343},"name":"BIKER Bia\u0142ystok"},{"company":["Nextbike GmbH"],"href":"/v2/networks/krm-konstancinskikonstancin-jeziorna","id":"krm-konstancinskikonstancin-jeziorna","location":{"city":"Konstancin Jeziorna","country":"PL","latitude":52.0759,"longit ude":21.1161},"name":"KRM Konstanci\u0144ski"}, {"company":["Nextbike GmbH"],"href":"/v2/networks/karbisseferihisar","id":"karbis-seferihisar","location": {"city":"Seferihisar","country":"TR","latitude":38.1962,"longitude":26.8386},"name":"KARBIS"}, {"company":["Nextbike GmbH"],"href":"/v2/networks/grad-sibeniksibenik","id":"grad-sibenik-sibenik","location": {"city":"\u0160ibenik","country":"HR","latitude":43.733,"longitude":15.8982},"name":"Grad \u0160ibenik"},{"company":["Nextbike GmbH"],"href":"/v2/networks/lrm-lublinlublin","id":"lrm-lublin-lublin","location": {"city":"Lublin","country":"PL","latitude":51.2469, "longitude":22.5697},"name":"LRM Lublin"}, {"company":["Nextbike GmbH"],"href":"/v2/networks/ebikestationschwieberdingen","id":"ebikestationschwieberdingen","location": {"city":"Schwieberdingen","country":"DE","latitude" :48.8723,"longitude":9.07419},"name":"ebikestation" },{"company":["Nextbike GmbH"],"href":"/v2/networks/healthy-ridepittsburgh-pittsburgh","id":"healthy-ridepittsburgh-pittsburgh","location": {"city":"Pittsburgh","country":"US","latitude":40.4459,"longitude":-79.9945},"name":"Healthy Ride"}, {"company":["Nextbike GmbH"],"href":"/v2/networks/grm-grodzisk-grodziskmazowiecki","id":"grm-grodzisk-grodziskmazowiecki","location":{"city":"Grodzisk Mazowiecki","country":"PL","latitude":52.113,"longi tude":20.6265},"name":"GRM Grodzisk"},{"company": ["Nextbike GmbH"],"href":"/v2/networks/nextbikequickborn","id":"nextbike-quickborn","location": {"city":"Quickborn","country":"DE","latitude":53.7333,"longitude":9.90272},"name":"Nextbike"}, {"company":["Nextbike GmbH"],"href":"/v2/networks/jerseybikehoboken","id":"jerseybike-hoboken","location": {"city":"Hoboken","country":"US","latitude":40.7447 ,"longitude":-74.0341},"name":"JerseyBike"}, {"company":["Nextbike GmbH"],"href":"/v2/networks/jerseybikeweehawken","id":"jerseybike-weehawken","location": {"city":"Weehawken","country":"US","latitude":40.7683,"longitude":-74.0216},"name":"JerseyBike"}, {"company":["Nextbike GmbH"],"href":"/v2/networks/ibike-king-abdullaheconomic-city","id":"ibike-king-abdullah-economiccity","location":{"city":"King Abdullah Economic City","country":"SA","latitude":22.4053,"longitude" :39.0815},"name":"iBike"},{"company":["Nextbike GmbH"],"href":"/v2/networks/vrnludwigshafen","id":"vrn-ludwigshafen","location": {"city":"Ludwigshafen","country":"DE","latitude":49.4741,"longitude":8.43287},"name":"VRN"}, {"company":["Nextbike GmbH"],"href":"/v2/networks/ebikestationwaiblingen","id":"ebikestationwaiblingen","location": {"city":"Waiblingen","country":"DE","latitude":48.8333,"longitude":9.31667},"name":"ebikestation"}, {"company":["Nextbike GmbH"],"href":"/v2/networks/nextbike-university-ofwarwick","id":"nextbike-university-ofwarwick","location": {"city":"Warwick","country":"GB","latitude":52.3815 ,"longitude":-1.56159},"name":"Nextbike"}, {"company":["Nextbike GmbH"],"href":"/v2/networks/vrn-speyer","id":"vrnspeyer","location": {"city":"Speyer","country":"DE","latitude":49.3126, "longitude":8.45295},"name":"VRN"},{"company": ["Nextbike GmbH"],"href":"/v2/networks/nextbikelviv","id":"nextbike-lviv","location": {"city":"Lviv","country":"UA","latitude":49.8402,"l ongitude":24.0182},"name":"Nextbike"},{"company": ["Nextbike GmbH"],"href":"/v2/networks/nextbikewurzburg","id":"nextbike-wurzburg","location": {"city":"W\u00fcrzburg","country":"DE","latitude":49.8,"longitude":9.93333},"name":"Nextbike"}, {"company":["Nextbike GmbH"],"href":"/v2/networks/skybike-west-palmbeach-west-palm-beach-florida","id":"skybike-westpalm-beach-west-palm-beach-florida","location": {"city":"West Palm Beach Florida","country":"US","latitude":26.7125,"longitu de":-80.0821},"name":"Skybike"},{"company": ["Nextbike GmbH"],"href":"/v2/networks/nextbikeserfaus","id":"nextbike-serfaus","location": {"city":"Serfaus","country":"AT","latitude":47.0387 ,"longitude":10.6048},"name":"Nextbike"}, {"company":["Nextbike GmbH"],"href":"/v2/networks/ebikestation-vaihingenan-der-enz","id":"ebikestation-vaihingen-an-derenz","location":{"city":"Vaihingen an der Enz","country":"DE","latitude":48.9334,"longitude": 8.96121},"name":"ebikestation"},{"company": ["Nextbike GmbH"],"href":"/v2/networks/ebikestationherrenberg","id":"ebikestationherrenberg","location": {"city":"Herrenberg","country":"DE","latitude":48.595,"longitude":8.86716},"name":"ebikestation"}, {"company":["Nextbike GmbH"],"href":"/v2/networks/ebikestationgoppingen","id":"ebikestationgoppingen","location": {"city":"G\u00f6ppingen","country":"DE","latitude": 48.7054,"longitude":9.65125},"name":"ebikestation"} ,{"company":["Nextbike GmbH"],"href":"/v2/networks/ebikestationludwigsburg","id":"ebikestationludwigsburg","location": {"city":"Ludwigsburg","country":"DE","latitude":48.8941,"longitude":9.19546},"name":"ebikestation"}, {"company":["Nextbike GmbH"],"href":"/v2/networks/grad-gospicgospic","id":"grad-gospic-gospic","location": {"city":"Gospi\u0107","country":"HR","latitude":44.5469,"longitude":15.375},"name":"Grad Gospi\u0107"},{"company":["Nextbike GmbH"],"href":"/v2/networks/ebikestationholzgerlingen","id":"ebikestationholzgerlingen","location": {"city":"Holzgerlingen","country":"DE","latitude":48.6388,"longitude":9.0096},"name":"ebikestation"}, {"company":["Nextbike GmbH"],"href":"/v2/networks/ebikestation-kirchheimam-neckar","id":"ebikestation-kirchheim-amneckar","location":{"city":"Kirchheim am Neckar","country":"DE","latitude":49.04,"longitude" :9.14441},"name":"ebikestation"},{"company": ["Nextbike GmbH"],"href":"/v2/networks/ebikestationfilderstadt","id":"ebikestationfilderstadt","location": {"city":"Filderstadt","country":"DE","latitude":48.6588,"longitude":9.22585},"name":"ebikestation"}, {"company":["Nextbike GmbH"],"href":"/v2/networks/ebikestationschorndorf","id":"ebikestationschorndorf","location": {"city":"Schorndorf","country":"DE","latitude":48.8015,"longitude":9.52962},"name":"ebikestation"}, {"company":["Nextbike GmbH"],"href":"/v2/networks/ebikestationfellbach","id":"ebikestation-fellbach","location": {"city":"Fellbach","country":"DE","latitude":48.816 6,"longitude":9.27967},"name":"ebikestation"}, {"company":["Nextbike GmbH"],"href":"/v2/networks/ebikestation-remseckam-neckar","id":"ebikestation-remseck-amneckar","location":{"city":"Remseck am Neckar","country":"DE","latitude":48.8767,"longitud e":9.26179},"name":"ebikestation"},{"company": ["Nextbike GmbH"],"href":"/v2/networks/nextbikemalta","id":"nextbike-malta","location": {"city":"Malta","country":"MT","latitude":35.9192," longitude":14.4889},"name":"Nextbike"},{"company": ["Nextbike GmbH"],"href":"/v2/networks/gradkarlovac-karlovac","id":"grad-karlovackarlovac","location": {"city":"Karlovac","country":"HR","latitude":45.4905,"longitude":15.5503},"name":"Grad Karlovac"}, {"company":["Nextbike GmbH"],"href":"/v2/networks/grad-slavonski-brodslavonski-brod","id":"grad-slavonski-brodslavonski-brod","location":{"city":"Slavonski Brod","country":"HR","latitude":45.1656,"longitude" :18.0183},"name":"Grad Slavonski Brod"},{"company": ["Nextbike GmbH"],"href":"/v2/networks/flashfleetkent-state-university-kent-stateuniversity","id":"flashfleet-kent-state-universitykent-state-university","location":{"city":"Kent State","country":"US","latitude":41.1492,"longitude ":-81.3363},"name":"Flashfleet Kent State University"},{"company":["Nextbike GmbH"],"href":"/v2/networks/nextbikelondon","id":"nextbike-london","location": {"city":"London","country":"GB","latitude":51.4862, "longitude":-0.11966},"name":"Nextbike"}, {"company":["Nextbike GmbH"],"href":"/v2/networks/bykystations-uae-alain","id":"bykystations-uae-al-ain","location": {"city":"Al Ain","country":"AE","latitude":24.2989,"longitude": 54.6979},"name":"BYKYstations UAE"},{"company": ["Nextbike GmbH"],"href":"/v2/networks/nextbikehergiswil","id":"nextbike-hergiswil","location": {"city":"Hergiswil","country":"CH","latitude":46.9905,"longitude":8.30829},"name":"Nextbike"}, {"company":["Nextbike GmbH"],"href":"/v2/networks/santander-cycles-mkmilton-keynes","id":"santander-cycles-mk-miltonkeynes","location":{"city":"Milton Keynes","country":"GB","latitude":52.0406,"longitud e":-0.759417},"name":"Santander Cycles MK"}, {"company":["Nextbike GmbH"],"href":"/v2/networks/grad-makarskamakarska","id":"grad-makarska-makarska","location": {"city":"Makarska","country":"HR","latitude":43.2992,"longitude":17.0184},"name":"Grad Makarska"}, {"company":["Nextbike GmbH"],"href":"/v2/networks/opcina-brinjebrinje","id":"opcina-brinje-brinje","location": {"city":"Brinje","country":"HR","latitude":44.9977, "longitude":15.1258},"name":"Op\u0107ina Brinje"}, {"company":["Nextbike GmbH"],"href":"/v2/networks/grad-zadarzadar","id":"grad-zadar-zadar","location": {"city":"Zadar","country":"HR","latitude":44.0058," longitude":15.2183},"name":"Grad Zadar"}, {"company":["Nextbike GmbH"],"href":"/v2/networks/grad-vukovarvukovar","id":"grad-vukovar-vukovar","location": {"city":"Vukovar","country":"HR","latitude":45.3575 ,"longitude":18.9895},"name":"Nextbike"}, {"company":["Nextbike GmbH"],"href":"/v2/networks/opcina-lastovolastovo","id":"opcina-lastovo-lastovo","location": {"city":"Lastovo","country":"HR","latitude":42.7626 ,"longitude":16.8719},"name":"Op\u0107ina Lastovo"},{"company":["Nextbike GmbH"],"href":"/v2/networks/lodzki-rower-publicznylodz","id":"lodzki-rower-publicznylodz","location": {"city":"L\u00f3d\u017a","country":"PL","latitude": 51.7689,"longitude":19.4554},"name":"\u0141\u00f3dz ki Rower Publiczny"},{"company":["Nextbike GmbH"],"href":"/v2/networks/lrm-lublinswidnik","id":"lrm-lublin-swidnik","location": {"city":"\u015awidnik","country":"PL","latitude":51.2194,"longitude":22.6988},"name":"LRM Lublin"}, {"company":["Nextbike GmbH"],"href":"/v2/networks/vrnbensheim","id":"vrn-bensheim","location": {"city":"Bensheim","country":"DE","latitude":49.6803,"longitude":8.6189},"name":"VRN"},{"company": ["Nextbike GmbH"],"href":"/v2/networks/grad-ivanicgrad-ivanic-grad","id":"grad-ivanic-grad-ivanicgrad","location":{"city":"Ivanic Grad","country":"HR","latitude":45.7062,"longitude" :16.3919},"name":"Grad Ivani\u0107-Grad"}, {"company":["Nextbike GmbH"],"href":"/v2/networks/stalowa-wola-miastorowerow-stalowa-wola","id":"stalowa-wola-miastorowerow-stalowa-wola","location":{"city":"Stalowa Wola","country":"PL","latitude":50.57,"longitude":22.0626},"name":"Stalowa Wola miasto rower\u00f3w"}, {"company":["Nextbike GmbH"],"href":"/v2/networks/katowice-bikekatowice","id":"katowice-bike-katowice","location": {"city":"Katowice","country":"PL","latitude":50.2594,"longitude":19.0215},"name":"Katowice Bike"}, {"company":["Nextbike GmbH"],"href":"/v2/networks/bike-s-srmszczecin","id":"bike-s-srm-szczecin","location": {"city":"Szczecin","country":"PL","latitude":53.4301,"longitude":14.5498},"name":"Bike_S SRM"}, {"company":["Nextbike GmbH"],"href":"/v2/networks/ordu-bisikletliordu","id":"ordu-bisikletli-ordu","location": {"city":"Ordu","country":"TR","latitude":40.9702,"l ongitude":37.8707},"name":"Ordu Bisikletli"}, {"company":["Nextbike GmbH"],"href":"/v2/networks/nextbikesarajevo","id":"nextbike-sarajevo","location": {"city":"Sarajevo","country":"BA","latitude":43.85, "longitude":18.39},"name":"Nextbike"},{"company": ["Nextbike GmbH"],"href":"/v2/networks/co-bikesexeter","id":"co-bikes-exeter","location": {"city":"Exeter","country":"GB","latitude":50.7272, "longitude":-3.53605},"name":"Co-bikes"}, {"company":["Nextbike GmbH"],"href":"/v2/networks/rower-gminnymichalowice-michalowice","id":"rower-gminnymichalowice-michalowice","location": {"city":"Micha\u0142owice","country":"PL","latitude ":52.1679,"longitude":20.8877},"name":"Rower Gminny Micha\u0142owice"},{"company":["Nextbike GmbH"],"href":"/v2/networks/nextbike-aucklandwaterfront","id":"nextbike-aucklandwaterfront","location":{"city":"Auckland Waterfront","country":"NZ","latitude":-36.841,"long itude":174.763},"name":"Nextbike"},{"company": ["Nextbike GmbH"],"href":"/v2/networks/nextbikeberlin","id":"nextbike-berlin","location": {"city":"Berlin","country":"DE","latitude":52.5087, "longitude":13.3563},"name":"Nextbike"},{"company": ["Nextbike GmbH"],"href":"/v2/networks/systemlegnicki-rower-miejski-slrm-legnica","id":"systemlegnicki-rower-miejski-slrm-legnica","location": {"city":"Legnica","country":"PL","latitude":51.2059 ,"longitude":16.1667},"name":"System Legnicki Rower Miejski (SLRM)"},{"company":["Nextbike GmbH"],"href":"/v2/networks/nextbikearuba","id":"nextbike-aruba","location": {"city":"Aruba","country":"AW","latitude":12.5137," longitude":-69.9757},"name":"Nextbike"},{"company": ["Nextbike GmbH"],"href":"/v2/networks/nextbikehyderabad","id":"nextbike-hyderabad","location": {"city":"Hyderabad","country":"IN","latitude":17.38 ,"longitude":78.4725},"name":"Nextbike"}, {"company":["Nextbike GmbH"],"href":"/v2/networks/sixt-jalgrattarenttallinn","id":"sixt-jalgrattarenttallinn","location": {"city":"Tallinn","country":"EE","latitude":59.4325 ,"longitude":24.7295},"name":"SIXT jalgrattarent"}, {"company":["Nextbike GmbH"],"href":"/v2/networks/veturilo-stacjesponsorskie-nextbike-veturilo","id":"veturilostacje-sponsorskie-nextbike-veturilo","location": {"city":"Warszawa","country":"PL","latitude":52.2265,"longitude":21.0127},"name":"Stacje Sponsorskie Nextbike Veturilo"},{"company":["Nextbike GmbH"],"href":"/v2/networks/chartered-bike-bhopalbhopal","id":"chartered-bike-bhopalbhopal","location": {"city":"Bhopal","country":"IN","latitude":23.2467, "longitude":77.411},"name":"Chartered Bike"}, {"company":["Nextbike GmbH"],"href":"/v2/networks/bike4allbyblos","id":"bike4all-byblos","location": {"city":"Byblos","country":"LB","latitude":34.1236, "longitude":35.6511},"name":"bike4all"},{"company": ["Nextbike GmbH"],"href":"/v2/networks/nextbikerotterdam","id":"nextbike-rotterdam","location": {"city":"Rotterdam","country":"IN","latitude":51.9224,"longitude":4.47265},"name":"Nextbike"}, {"company":["Nextbike GmbH"],"href":"/v2/networks/wk-bike-bremenbremen","id":"wk-bike-bremen-bremen","location": {"city":"Bremen","country":"DE","latitude":53.0781, "longitude":8.80132},"name":"WK-Bike"},{"company": ["Nextbike GmbH"],"href":"/v2/networks/nextbikestans","id":"nextbike-stans","location": {"city":"Stans","country":"CH","latitude":46.9593," longitude":8.36836},"name":"Nextbike"},{"company": ["Nextbike GmbH"],"href":"/v2/networks/nextbikevictoria","id":"nextbike-victoria","location": {"city":"Victoria","country":"CA","latitude":48.4298,"longitude":-123.361},"name":"Nextbike"}, {"company":["Nextbike GmbH"],"href":"/v2/networks/vrn-worms","id":"vrnworms","location": {"city":"Worms","country":"DE","latitude":49.6394," longitude":8.34618},"name":"VRN"},{"company": ["Nextbike GmbH"],"href":"/v2/networks/nextbikemaastricht","id":"nextbike-maastricht","location": {"city":"Maastricht","country":"NL","latitude":50.8514,"longitude":5.69129},"name":"Nextbike"}, {"company":["Nextbike GmbH"],"href":"/v2/networks/byky-bikeskuwait","id":"byky-bikes-kuwait","location": {"city":"Kuwait","country":"KW","latitude":29.3632, "longitude":47.487},"name":"BYKY Bikes"}, {"company":["Nextbike GmbH"],"href":"/v2/networks/nextbikestansstad","id":"nextbike-stansstad","location": {"city":"Stansstad","country":"CH","latitude":46.9801,"longitude":8.34098},"name":"Nextbike"}, {"company":["Nextbike GmbH"],"href":"/v2/networks/nextbikehorw","id":"nextbike-horw","location": {"city":"Horw","country":"CH","latitude":47.0188,"l ongitude":8.30828},"name":"Nextbike"},{"company": ["Nextbike GmbH"],"href":"/v2/networks/vrnburstadt","id":"vrn-burstadt","location": {"city":"B\u00fcrstadt","country":"DE","latitude":49.6461,"longitude":8.44917},"name":"VRN"}, {"company":["Nextbike GmbH"],"href":"/v2/networks/gliwicki-rower-miejskisgrm-gliwice","id":"gliwicki-rower-miejski-sgrmgliwice","location": {"city":"Gliwice","country":"PL","latitude":50.2918 ,"longitude":18.669},"name":"Gliwicki Rower Miejski (SGRM)"},{"company":["Nextbike GmbH"],"href":"/v2/networks/prm-stacje-sponsorskienextbike-prm","id":"prm-stacje-sponsorskienextbike-prm","location": {"city":"Pozna\u0144","country":"PL","latitude":52.4077,"longitude":16.9323},"name":"Stacje Sponsorskie Nextbike PRM"},{"company":["Nextbike GmbH"],"href":"/v2/networks/nextbikeklagenfurt","id":"nextbike-klagenfurt","location": {"city":"Klagenfurt","country":"AT","latitude":46.6335,"longitude":14.3085},"name":"Nextbike"}, {"company":["Nextbike GmbH"],"href":"/v2/networks/nextbike-grossenzersdorf","id":"nextbike-grossenzersdorf","location":{"city":"Gro\u00df Enzersdorf","country":"AT","latitude":48.1986,"long itude":16.5496},"name":"Nextbike"},{"company": ["Nextbike GmbH"],"href":"/v2/networks/radomskirower-miejski-radom","id":"radomski-rower-miejskiradom","location": {"city":"Radom","country":"PL","latitude":51.3994," longitude":21.1655},"name":"Radomski Rower Miejski"},{"company":["Nextbike GmbH"],"href":"/v2/networks/vrnkaiserslautern","id":"vrnkaiserslautern","location": {"city":"Kaiserslautern","country":"DE","latitude": 49.4413,"longitude":7.75566},"name":"VRN"}, {"company":["Nextbike GmbH"],"href":"/v2/networks/radomski-rower-miejskistacje-sponsorskie-radom","id":"radomski-rowermiejski-stacje-sponsorskie-radom","location": {"city":"Radom","country":"PL","latitude":51.3994," longitude":21.1655},"name":"Stacje Sponsorskie Radom"},{"company":["Nextbike GmbH"],"href":"/v2/networks/sitycleta-las-palmaslas-palmas-de-gran-canaria","id":"sitycleta-laspalmas-las-palmas-de-gran-canaria","location": {"city":"Las Palmas de Gran Canaria","country":"ES","latitude":28.1236,"longitu de":-15.4366},"name":"Sitycleta"},{"company": ["Nextbike GmbH"],"href":"/v2/networks/smartbikevijayawada-vijayawada","id":"smartbike-vijayawadavijayawada","location": {"city":"Vijayawada","country":"IN","latitude":16.5109,"longitude":80.6313},"name":"Smartbike Vijayawada"},{"company":["Nextbike GmbH"],"href":"/v2/networks/system-rowerowmiejskich-w-pszczynie-pszczyna","id":"systemrowerow-miejskich-w-pszczynie-pszczyna","location": {"city":"Pszczyna","country":"PL","latitude":49.9757,"longitude":18.9463},"name":"System Rower\u00f3w Miejskich w Pszczynie"},{"company":["Nextbike GmbH"],"href":"/v2/networks/tyski-rower-miejskitychy","id":"tyski-rower-miejski-tychy","location": {"city":"Tychy","country":"PL","latitude":50.1304," longitude":18.9436},"name":"Tyski Rower Miejski"}, {"company":["Nextbike GmbH"],"href":"/v2/networks/zgierski-rower-miejskizgierz","id":"zgierski-rower-miejskizgierz","location": {"city":"Zgierz","country":"PL","latitude":51.8602, "longitude":19.4118},"name":"Zgierski Rower Miejski"},{"company":["Nextbike GmbH"],"href":"/v2/networks/grad-velika-goricavelika-gorica","id":"grad-velika-gorica-velikagorica","location":{"city":"Velika Gorica","country":"HR","latitude":45.7161,"longitud e":16.0683},"name":"Grad Velika Gorica"}, {"company":["Nextbike GmbH"],"href":"/v2/networks/nextbikeamstetten","id":"nextbike-amstetten","location": {"city":"Amstetten","country":"AT","latitude":48.1218,"longitude":14.8774},"name":"Nextbike"}, {"company":["Nextbike GmbH"],"href":"/v2/networks/grad-sisaksisak","id":"grad-sisak-sisak","location": {"city":"Sisak","country":"HR","latitude":45.4875," longitude":16.3753},"name":"Grad Sisak"}, {"company":["Nextbike GmbH"],"href":"/v2/networks/nextbikesalzburg","id":"nextbike-salzburg","location": {"city":"Salzburg ","country":"AT","latitude":47.8014,"longitude":13.0458},"name":"Nextbike"},{"company":["Nextbike GmbH"],"href":"/v2/networks/ok-bike-kedzierzynkozle","id":"ok-bike-kedzierzyn-kozle","location": {"city":"K\u0119dzierzynKo\u017ale","country":"PL","latitude":50.3421,"long itude":18.2049},"name":"OK Bike"},{"company": ["Nextbike GmbH"],"href":"/v2/networks/kolobrzeskirower-miejski-kolobrzeg","id":"kolobrzeski-rowermiejski-kolobrzeg","location": {"city":"Ko\u0142obrzeg","country":"PL","latitude": 54.1762,"longitude":15.5761},"name":"Ko\u0142obrzes ki Rower Miejski"},{"company":["Nextbike GmbH"],"href":"/v2/networks/grad-metkovicmetkovic","id":"grad-metkovic-metkovic","location": {"city":"Metkovi\u0107","country":"HR","latitude":43.0654,"longitude":17.642},"name":"Grad Metkovi\u0107"},{"company":["Nextbike GmbH"],"href":"/v2/networks/siedlecki-rowermiejski-siedlce","id":"siedlecki-rower-miejskisiedlce","location": {"city":"Siedlce","country":"PL","latitude":52.1668 ,"longitude":22.2891},"name":"Siedlecki Rower Miejski"},{"company":["Nextbike GmbH"],"href":"/v2/networks/grad-drnisdrnis","id":"grad-drnis-drnis","location": {"city":"Drni\u0161","country":"HR","latitude":43.8425,"longitude":16.1197},"name":"Nextbike"}, {"company":["Nextbike GmbH"],"href":"/v2/networks/jastrebarskojastrebarsko","id":"jastrebarskojastrebarsko","location": {"city":"Jastrebarsko","country":"HR","latitude": 45.6692,"longitude":15.6541},"name":"Nextbike"}, {"company":["Nextbike GmbH"],"href":"/v2/networks/porec-bike-shareporec","id":"porec-bike-share-porec","location": {"city":"Pore\u010d","country":"HR","latitude":45.2292,"longitude":13.6035},"name":"Porec bike share"},{"company":["Nextbike GmbH"],"href":"/v2/networks/nextbikepanama","id":"nextbike-panama","location": {"city":"Panama","country":"IN","latitude":8.95284, "longitude":-79.5369},"name":"Nextbike"}, {"company":["Nextbike GmbH"],"href":"/v2/networks/nextbiketuzla","id":"nextbike-tuzla","location": {"city":"Tuzla","country":"BA","latitude":44.5392," longitude":18.675},"name":"Nextbike"},{"company": ["Nextbike GmbH"],"href":"/v2/networks/arrivanitra","id":"arriva-nitra","location": {"city":"Nitra","country":"SK","latitude":48.3088," longitude":18.0783},"name":"Arriva"},{"company": ["Nextbike GmbH"],"href":"/v2/networks/kaliskirower-miejski-kalisz","id":"kaliski-rower-miejskikalisz","location": {"city":"Kalisz","country":"PL","latitude":51.7608, "longitude":18.0746},"name":"Kaliski Rower Miejski"},{"company":["Nextbike GmbH"],"href":"/v2/networks/nextbikemarburg","id":"nextbike-marburg","location": {"city":"Marburg","country":"DE","latitude":50.8019 ,"longitude":8.76444},"name":"Nextbike"}, {"company":["Nextbike GmbH"],"href":"/v2/networks/nextbike-russelsheimam-main","id":"nextbike-russelsheim-ammain","location":{"city":"R\u00fcsselsheim am Main","country":"DE","latitude":49.9881,"longitude" :8.42142},"name":"Nextbike"},{"company":["Nextbike GmbH"],"href":"/v2/networks/bubi","id":"bubi","loca tion": {"city":"Budapest","country":"HU","latitude":47.497912,"longitude":19.040235},"name":"MOL Bubi"}, {"company":["Nextbike GmbH"],"href":"/v2/networks/pruszkowski-rowermiejski-pruszkow","id":"pruszkowski-rower-miejskipruszkow","location": {"city":"Pruszk\u00f3w","country":"PL","latitude":52.1637,"longitude":20.8018},"name":"Pruszkowski Rower Miejski"},{"company":["Nextbike GmbH"],"href":"/v2/networks/nextbikedordrecht","id":"nextbike-dordrecht","location": {"city":"Dordrecht","country":"NL","latitude":51.7833,"longitude":4.69391},"name":"Nextbike"}, {"company":["Nextbike GmbH"],"href":"/v2/networks/rower-miejskiszamotuly-rms-szamotuly","id":"rower-miejskiszamotuly-rms-szamotuly","location": {"city":"Szamotu\u0142y","country":"PL","latitude": 52.6112,"longitude":16.5819},"name":"Rower Miejski Szamotu\u0142y"},{"company":["Nextbike GmbH"],"href":"/v2/networks/vrnheppenheim","id":"vrn-heppenheim","location": {"city":"Heppenheim","country":"DE","latitude":49.6431,"longitude":8.63889},"name":"VRN"},{"company": ["Nextbike GmbH"],"href":"/v2/networks/czestochowski-rowermiejski-czestochowa","id":"czestochowski-rowermiejski-czestochowa","location": {"city":"Cz\u0119stochowa","country":"PL","latitude ":50.812,"longitude":19.1375},"name":"Cz\u0119stoch owski Rower Miejski"},{"company":["Nextbike GmbH"],"href":"/v2/networks/rower-miejski-wostrowie-wielkopolskim-ostrowwielkopolski","id":"rower-miejski-w-ostrowiewielkopolskim-ostrow-wielkopolski","location": {"city":"Ostr\u00f3w Wielkopolski","country":"PL","latitude":51.65,"long itude":17.8253},"name":"Rower Miejski w Ostrowie Wielkopolskim"},{"company":["Nextbike GmbH"],"href":"/v2/networks/jerseybikebayonne","id":"jerseybike-bayonne","location": {"city":"Bayonne","country":"US","latitude":40.6668 ,"longitude":-74.1154},"name":"JerseyBike"}, {"company":["Nextbike GmbH"],"href":"/v2/networks/jerseybikeguttenberg","id":"jerseybikeguttenberg","location": {"city":"Guttenberg","country":"US","latitude":40.792,"longitude":-74.0035},"name":"JerseyBike"}, {"company":["Nextbike GmbH"],"href":"/v2/networks/jerseybike-west-newyork","id":"jerseybike-west-new-york","location": {"city":"West New York","country":"US","latitude":40.7882,"longitude" :-74.0142},"name":"JerseyBike"},{"company": ["Nextbike GmbH"],"href":"/v2/networks/dundeenavigogo-dundee","id":"dundee-navigogodundee","location": {"city":"Dundee","country":"GB","latitude":56.4623, "longitude":-2.97071},"name":"Dundee-Navigogo"}, {"company":["Nextbike GmbH"],"href":"/v2/networks/piaseczynski-rowermiejski-piaseczno","id":"piaseczynski-rowermiejski-piaseczno","location": {"city":"Piaseczno","country":"PL","latitude":52.0733,"longitude":21.0269},"name":"Piaseczy\u0144ski Rower Miejski"},{"company":["Nextbike GmbH"],"href":"/v2/networks/nextbikekassel","id":"nextbike-kassel","location": {"city":"Kassel","country":"DE","latitude":51.3127, "longitude":9.47975},"name":"Nextbike"},{"company": ["Nextbike GmbH"],"href":"/v2/networks/nextbikesarnen","id":"nextbike-sarnen","location": {"city":"Sarnen","country":"CH","latitude":46.8963, "longitude":8.24614},"name":"Nextbike"},{"company": ["Nextbike GmbH"],"href":"/v2/networks/nextbikewolfenschiessen","id":"nextbikewolfenschiessen","location": {"city":"Wolfenschiessen","country":"CH","latitude" :46.9079,"longitude":8.39767},"name":"Nextbike"}, {"company":["Nextbike GmbH"],"href":"/v2/networks/nextbikeoberdorf","id":"nextbike-oberdorf","location": {"city":"Oberdorf","country":"CH","latitude":46.9563,"longitude":8.3884},"name":"Nextbike"}, {"company":["Nextbike GmbH"],"href":"/v2/networks/nextbikegiessen","id":"nextbike-giessen","location": {"city":"Gie\u00dfen","country":"DE","latitude":50.5943,"longitude":8.68097},"name":"Nextbike"}, {"company":["Nextbike GmbH"],"href":"/v2/networks/jerseybike-northbergen","id":"jerseybike-north-bergen","location": {"city":"North Bergen","country":"US","latitude":40.8045,"longitude":-74.0135},"name":"JerseyBike"},{"company": ["Nextbike GmbH"],"href":"/v2/networks/bikerbialystok-orlen-bialystok","id":"biker-bialystokorlen-bialystok","location": {"city":"Bia\u0142ystok","country":"PL","latitude": 53.1342,"longitude":23.1485},"name":"BIKER Bia\u0142ystok - Orlen"},{"company":["Nextbike GmbH"],"href":"/v2/networks/vrnweinheim","id":"vrn-weinheim","location": {"city":"Weinheim","country":"DE","latitude":49.545 ,"longitude":8.66027},"name":"VRN"},{"company": ["Nextbike GmbH"],"href":"/v2/networks/lrm-lublinorlen-lublin","id":"lrm-lublin-orlenlublin","location": {"city":"Lublin","country":"PL","latitude":51.2469, "longitude":22.5697},"name":"LRM Lublin - Orlen"}, {"company":["Nextbike GmbH"],"href":"/v2/networks/wrm-orlenwroclaw","id":"wrm-orlen-wroclaw","location": {"city":"Wroc\u0142aw","country":"PL","latitude":51.1097,"longitude":17.0485},"name":"WRM - Orlen"}, {"company":["Nextbike GmbH"],"href":"/v2/networks/veturilo-orlenwarszawa","id":"veturilo-orlenwarszawa","location": {"city":"Warsaw","country":"PL","latitude":52.2385, "longitude":20.9827} 
